{
  "TimeBetweenDrops": "00:01:00",
  "Landmarks": [
    {
      "District": "Altstadt",
      "Name": "Globus-Brunnen",
      "Address": "",
      "Coordinates": [
        53.546978,
        9.991107
      ],
      "ImagePath": "images/globus-brunnen.jpeg"
    },
    {
      "District": "Altstadt",
      "Name": "Heinrich-Heine-Denkmal",
      "Address": "Rathausmarkt, 20095 Hamburg",
      "Coordinates": [
        53.55046,
        9.993649
      ],
      "ImagePath": "images/heinrich-heine-denkmal.jpg"
    },
    {
      "District": "Altstadt",
      "Name": "Hygieia-Brunnen",
      "Address": "",
      "Coordinates": [
        53.550243,
        9.992051
      ],
      "ImagePath": "images/hygieia-brunnen.jpg"
    },
    {
      "District": "Altstadt",
      "Name": "Johann-Georg-M\u00F6nckeberg-Denkmal",
      "Address": "Altstadt, 20095 Hamburg",
      "Coordinates": [
        53.551243,
        10.0008
      ],
      "ImagePath": "images/johann-georg-moenckeberg-denkmal.jpg"
    },
    {
      "District": "Altstadt",
      "Name": "Neuer Kran",
      "Address": "b. dem Neuen Krahn 2, 20457 Hamburg",
      "Coordinates": [
        53.544712,
        9.988516
      ],
      "ImagePath": "images/neuer-kran.jpg"
    },
    {
      "District": "Altstadt",
      "Name": "Rette den Wald",
      "Address": "",
      "Coordinates": [
        53.549847,
        9.997084
      ],
      "ImagePath": "images/rette-den-wald.jpg"
    },
    {
      "District": "Altstadt",
      "Name": "Skulptur von Jens-Flemming S\u00F8rensen (1993)",
      "Address": "Klingberg, 20457 Hamburg",
      "Coordinates": [
        53.547897,
        10.000605
      ],
      "ImagePath": "images/skulptur-von-jens-flemming-sorensen.jpg"
    },
    {
      "District": "Neustadt",
      "Name": "Bismarck-Denkmal",
      "Address": "",
      "Coordinates": [
        53.54871,
        9.972092
      ],
      "ImagePath": "images/bismarck-denkmal.jpg"
    },
    {
      "District": "Neustadt",
      "Name": "Cap San Diego (Steg am Schiff ber\u00FChren reicht!)",
      "Address": "",
      "Coordinates": [
        53.543,
        9.976752
      ],
      "ImagePath": null
    },
    {
      "District": "Neustadt",
      "Name": "Hummel-Denkmal",
      "Address": "",
      "Coordinates": [
        53.55223,
        9.981852
      ],
      "ImagePath": "images/hummel-denkmal.jpg"
    },
    {
      "District": "Neustadt",
      "Name": "Lessing-Denkmal",
      "Address": "",
      "Coordinates": [
        53.55516,
        9.988517
      ],
      "ImagePath": "images/lessing-denkmal.jpg"
    },
    {
      "District": "Neustadt",
      "Name": "Morgenstunde",
      "Address": "",
      "Coordinates": [
        53.55049,
        9.978368
      ],
      "ImagePath": "images/morgenstunde.jpg"
    },
    {
      "District": "Neustadt",
      "Name": "Die Windsbraut",
      "Address": "",
      "Coordinates": [
        53.557076,
        9.99375
      ],
      "ImagePath": "images/die-windsbraut.jpg"
    },
    {
      "District": "Neustadt",
      "Name": "Wand-Lung",
      "Address": "St Pauli, 20355 Hamburg",
      "Coordinates": [
        53.557568,
        9.980461
      ],
      "ImagePath": "images/wand-lung.jpg"
    },
    {
      "District": "Neustadt",
      "Name": "Skulptur Liegende",
      "Address": "",
      "Coordinates": [
        53.55847,
        9.9886675
      ],
      "ImagePath": "images/skulptur-liegende.jpg"
    },
    {
      "District": "St. Pauli",
      "Name": "Sonnenuhr (Planten un Blomen)",
      "Address": "",
      "Coordinates": [
        53.562572,
        9.979952
      ],
      "ImagePath": "images/sonnenuhr-planten-un-blomen.jpg"
    },
    {
      "District": "St. Pauli",
      "Name": "PENNY-Markt auf der Reeperbahn",
      "Address": "",
      "Coordinates": [
        53.54975,
        9.960497
      ],
      "ImagePath": "images/penny-markt-auf-der-reeperbahn.jpg"
    },
    {
      "District": "St. Pauli",
      "Name": "St.Pauli Logo-Statue",
      "Address": "",
      "Coordinates": [
        53.553364,
        9.966276
      ],
      "ImagePath": "images/st-pauli-logo-statue.JPG"
    },
    {
      "District": "St. Pauli",
      "Name": "Skulptur Kaiser Wilhelm I.",
      "Address": "Johannes-Brahms-Platz, 20355 Hamburg",
      "Coordinates": [
        53.555378,
        9.978099
      ],
      "ImagePath": "images/skulptur-kaiser-wilhelm-i.jpg"
    },
    {
      "District": "St. Pauli",
      "Name": "Japanisches Teehaus (Japanischer Garten)",
      "Address": "Marseiller Str. 7, 20355 Hamburg",
      "Coordinates": [
        53.560688,
        9.983395
      ],
      "ImagePath": "images/japanischer-garten-japanisches-teehaus.jpg"
    }
  ]
}